[
  {
    "name": "Maa Tara Tiffin Center",
    "field2": "",
    "location type": "",
    "longitude": "88.40840\"E",
    "latitude": "22.59440\"N",
    "city": "Kolkata",
    "state": "West Bengal",
    "foodItems": "hing er kachori",
    "hospitality": "4 stars",
    "hygiene": "4 stars",
    "taste": "5 stars",
    "photoUrl": "https://res.cloudinary.com/dsdky0ppi/image/upload/v1736398217/maa_vvxjhz.jpg"
  },
  {
    "name": "Nandi's Food Hub",
    "field2": "",
    "location type": "",
    "longitude": "88.40822\"E",
    "latitude": "22.59450\"N",
    "city": "Kolkata",
    "state": "West Bengal",
    "foodItems": "egg rolls",
    "hospitality": "5 stars",
    "hygiene": "3 stars",
    "taste": "5 stars",
    "photoUrl": "https://res.cloudinary.com/dsdky0ppi/image/upload/v1736398293/nandi_s_nxdaz9.jpg"
  },
  {
    "name": "Krishna Fast Food Center",
    "field2": "",
    "location type": "",
    "longitude": "88.40810\"E",
    "latitude": "22.59480\"N",
    "city": "Kolkata",
    "state": "West Bengal",
    "foodItems": "fish fry",
    "hospitality": "5 stars",
    "hygiene": "3 stars",
    "taste": "3 stars",
    "photoUrl": "https://res.cloudinary.com/dsdky0ppi/image/upload/v1736398327/tasty_jrjbyd.jpg"
  },
  {
    "name": "Ganesh Pavbhaji",
    "field2": "",
    "location type": "",
    "longitude": "88.41705\"E",
    "latitude": "22.59560\"N",
    "city": "Kolkata",
    "state": "West Bengal",
    "foodItems": "vada pav",
    "hospitality": "5 stars",
    "hygiene": "5 stars",
    "taste": "4 stars",
    "photoUrl": "https://res.cloudinary.com/dsdky0ppi/image/upload/v1736398387/ganesh_ztovnc.jpg"
  },
  {
    "name": "Prasad Pani Puri",
    "field2": "",
    "location type": "",
    "longitude": "88.41705\"E",
    "latitude": "22.59560\"N",
    "city": "Kolkata",
    "state": "West Bengal",
    "foodItems": "",
    "hospitality": "5 stars",
    "hygiene": "5 stars",
    "taste": "5 stars",
    "photoUrl": "https://res.cloudinary.com/dsdky0ppi/image/upload/v1736398425/prasad_kanuaf.jpg"
  },
  {
    "name": "Momo's Corner",
    "field2": "",
    "location type": "",
    "longitude": "88.41700\"E",
    "latitude": "22.59560\"N",
    "city": "Kolkata",
    "state": "West Bengal",
    "foodItems": "cheese wai wai",
    "hospitality": "5 stars",
    "hygiene": "4 stars",
    "taste": "5 stars",
    "photoUrl": "https://res.cloudinary.com/dsdky0ppi/image/upload/v1736398450/momo_stkzxe.jpg"
  },
  {
    "name": "Snacks Hut",
    "field2": "",
    "location type": "",
    "longitude": "88.41700\"E",
    "latitude": "22.59560\"N",
    "city": "Kolkata",
    "state": "West Bengal",
    "foodItems": "chaat",
    "hospitality": "4 stars",
    "hygiene": "4 stars",
    "taste": "5 stars",
    "photoUrl": "https://res.cloudinary.com/dsdky0ppi/image/upload/v1736398488/snacks_hut_ccq3ws.jpg"
  },
  {
    "name": "Victoria Corner",
    "field2": "",
    "location type": "",
    "longitude": "88.41700\"E",
    "latitude": "22.59560\"N",
    "city": "Kolkata",
    "state": "West Bengal",
    "foodItems": "soda shikhanji",
    "hospitality": "5 stars",
    "hygiene": "4 stars",
    "taste": "5 stars",
    "photoUrl": "https://res.cloudinary.com/dsdky0ppi/image/upload/v1736398517/victoria_wuytfs.jpg"
  },
  {
    "name": "Ashok Bhel Puri",
    "field2": "",
    "location type": "",
    "longitude": "88.41700\"E",
    "latitude": "22.59560\"N",
    "city": "Kolkata",
    "state": "West Bengal",
    "foodItems": "papdi chaat",
    "hospitality": "5 stars",
    "hygiene": "4 stars",
    "taste": "4 stars",
    "photoUrl": "https://res.cloudinary.com/dsdky0ppi/image/upload/v1736398546/ashok_jolrqs.jpg"
  },
  {
    "name": "Tapan Roll counter",
    "field2": "",
    "location type": "",
    "longitude": "88.41700\"E",
    "latitude": "22.59560\"N",
    "city": "Kolkata",
    "state": "West Bengal",
    "foodItems": "chops",
    "hospitality": "4 stars",
    "hygiene": "3 stars",
    "taste": "2 stars",
    "photoUrl": "https://res.cloudinary.com/dsdky0ppi/image/upload/v1736398567/tapan_joj19v.jpg"
  },
  {
    "name": "Chat Hut",
    "field2": "",
    "location type": "",
    "longitude": "88.41705\"E",
    "latitude": "22.59565\"N",
    "city": "Kolkata",
    "state": "West Bengal",
    "foodItems": "bhel puri",
    "hospitality": "5 stars",
    "hygiene": "5 stars",
    "taste": "5 stars",
    "photoUrl": "https://res.cloudinary.com/dsdky0ppi/image/upload/v1736398591/chat_hut_nbrqw5.jpg"
  },
  {
    "name": "Berlin Burgers",
    "field2": "",
    "location type": "",
    "longitude": "88.42066\"E",
    "latitude": "22.59484\"N",
    "city": "Kolkata",
    "state": "West Bengal",
    "foodItems": "fries",
    "hospitality": "5 stars",
    "hygiene": "5 stars",
    "taste": "3 stars",
    "photoUrl": "https://res.cloudinary.com/dsdky0ppi/image/upload/v1736398610/berlin_t8pdxq.jpg"
  },
  {
    "name": "Babu Yadav Puchka Wala",
    "field2": "",
    "location type": "",
    "longitude": "88.40917\"E",
    "latitude": "22.59857\"N",
    "city": "Kolkata",
    "state": "West Bengal",
    "foodItems": "churmur",
    "hospitality": "5 stars",
    "hygiene": "3 stars",
    "taste": "4 stars",
    "photoUrl": "https://res.cloudinary.com/dsdky0ppi/image/upload/v1736398646/AE_e4biuh.jpg"
  },
  {
    "name": "Gupi's Kitchen",
    "field2": "",
    "location type": "",
    "longitude": "88.40917\"E",
    "latitude": "22.59857\"N",
    "city": "Kolkata",
    "state": "West Bengal",
    "foodItems": "egg sandwich",
    "hospitality": "4 stars",
    "hygiene": "2 star",
    "taste": "2 star",
    "photoUrl": "https://res.cloudinary.com/dsdky0ppi/image/upload/v1736398671/gupis_srb0wk.jpg"
  },
  {
    "name": "Sen Mahsay Mohan Puchka",
    "field2": "",
    "location type": "",
    "longitude": "88.41155\"E",
    "latitude": "22.59860\"N",
    "city": "Kolkata",
    "state": "West Bengal",
    "foodItems": "churmur",
    "hospitality": "5 stars",
    "hygiene": "3 stars",
    "taste": "5 stars",
    "photoUrl": "https://res.cloudinary.com/dsdky0ppi/image/upload/v1736398702/idk_jsxboz.jpg"
  },
  {
    "name": "Mirch Masala",
    "field2": "",
    "location type": "",
    "longitude": "88.42450\"E",
    "latitude": "22.58683\"N",
    "city": "Kolkata",
    "state": "West Bengal",
    "foodItems": "chowmein",
    "hospitality": "3 stars",
    "hygiene": "4 stars",
    "taste": "4 stars",
    "photoUrl": "https://res.cloudinary.com/dsdky0ppi/image/upload/v1736398724/mirch_wbblzv.jpg"
  },
  {
    "name": "Sahu Bhel",
    "field2": "",
    "location type": "",
    "longitude": "88.40872\"E",
    "latitude": "22.59397\"N",
    "city": "Kolkata",
    "state": "West Bengal",
    "foodItems": "chana chips",
    "hospitality": "5 stars",
    "hygiene": "3 stars",
    "taste": "3 stars",
    "photoUrl": "https://res.cloudinary.com/dsdky0ppi/image/upload/v1736398744/sahus_mqakrv.jpg"
  }
]