[
  {
    "name": "Prakash Sandwich and Chaat Centre",
    "location__type": "",
    "latitude": "19°11′41″ N",
    "longitude": "72°58′30″ E",
    "City": "Mumbai",
    "State": "Maharahstra",
    "foodItems": "sandwich",
    "foodItems": "pani puri",
    "hygieneRating": "3 star",
    "tasteRating": "5 star",
    "hospitalityRating": "3 star",
    "photoUrl": "https://res.cloudinary.com/dcafi44ej/image/upload/v1736190745/prakash_rdm3jj.jpg"
  },
  {
    "name": "Ram Sevak",
    "location__type": "",
    "latitude": "19°11′41″ N",
    "longitude": "72°58′35″ E",
    "City": "Mumbai",
    "State": "Maharahstra",
    "foodItems": "pav bhaji",
    "foodItems": "vada pav",
    "hygieneRating": "2 star",
    "tasteRating": "4 star",
    "hospitalityRating": "3 star",
    "photoUrl": "https://res.cloudinary.com/dcafi44ej/image/upload/v1736230674/ram_sevak_jkue04.jpg"
  },
  {
    "name": "Divadkar Bandu Sandwich and Pani Puri",
    "location__type": "",
    "latitude": "19°11′24″ N",
    "longitude": "72°58′17″ E",
    "City": "Mumbai",
    "State": "Maharahstra",
    "foodItems": "pani puri",
    "foodItems": "sandwich",
    "hygieneRating": "5 star",
    "tasteRating": "4 star",
    "hospitalityRating": "5 star",
    "photoUrl": "https://res.cloudinary.com/dcafi44ej/image/upload/v1736231077/divakarbandhu_ul4ss6.jpg"
  },
  {
    "name": "Sadguru",
    "location__type": "",
    "latitude": "19°11′24″ N",
    "longitude": "72°58′14″ E",
    "City": "Mumbai",
    "State": "Maharahstra",
    "foodItems": "burger",
    "foodItems": "bhel puri",
    "hygieneRating": "3 star",
    "tasteRating": "5 star",
    "hospitalityRating": "4 star",
    "photoUrl": "https://res.cloudinary.com/dcafi44ej/image/upload/v1736231395/sadguru_fvwyhn.jpg"
  },
  {
    "name": "Shegav Kachori",
    "location__type": "",
    "latitude": "19°11′23″ N",
    "longitude": "72°58′8″ E",
    "City": "Mumbai",
    "State": "Maharahstra",
    "foodItems": "kachori",
    "foodItems": "pav bhaji",
    "hygieneRating": "5 star",
    "tasteRating": "5 star",
    "hospitalityRating": "3 star",
    "photoUrl": "https://res.cloudinary.com/dcafi44ej/image/upload/v1736246269/shegavkachori_jbk8vk.jpg"
  },
  {
    "name": "Gupta Pani Puri Centre",
    "location__type": "",
    "latitude": "19°11′30″ N",
    "longitude": "72°58′23″ E",
    "City": "Mumbai",
    "State": "Maharahstra",
    "foodItems": "pani puri",
    "foodItems": "sodas",
    "hygieneRating": "2 star",
    "tasteRating": "5 star",
    "hospitalityRating": "4 star",
    "photoUrl": "https://res.cloudinary.com/dcafi44ej/image/upload/v1736257595/guptapanipuri_vyaylw.jpg"
  },
  {
    "name": "Mom's Kitchen",
    "location__type": "",
    "latitude": "19°11′32″ N",
    "longitude": "72°58′25″ E",
    "City": "Mumbai",
    "State": "Maharahstra",
    "foodItems": "pulao",
    "foodItems": "dal rice",
    "hygieneRating": "5 star",
    "tasteRating": "4 star",
    "hospitalityRating": "3 star",
    "photoUrl": "https://res.cloudinary.com/dcafi44ej/image/upload/v1736257762/momskitchen_kurxt8.jpg"
  },
  {
    "name": "Saikrupa Chaat Corner",
    "location__type": "",
    "latitude": "19°11′28″ N",
    "longitude": "72°58′21″ E",
    "City": "Mumbai",
    "State": "Maharahstra",
    "foodItems": "sev puri",
    "foodItems": "bhel",
    "hygieneRating": "3 star",
    "tasteRating": "5 star",
    "hospitalityRating": "5 star",
    "photoUrl": "https://res.cloudinary.com/dcafi44ej/image/upload/v1736257942/saikrupa_vo3vr1.jpg"
  },
  {
    "name": "Dheeraj Momos Centre",
    "location__type": "",
    "latitude": "19°11′43″ N",
    "longitude": "72°58′36″ E",
    "City": "Mumbai",
    "State": "Maharahstra",
    "foodItems": "momos",
    "foodItems": "noodles",
    "hygieneRating": "3 star",
    "tasteRating": "4 star",
    "hospitalityRating": "3 star",
    "photoUrl": "https://res.cloudinary.com/dcafi44ej/image/upload/v1736258252/dheerajmomos_vaaawx.jpg"
  },
  {
    "name": "Aaikrupa",
    "location__type": "",
    "latitude": "19°11′39″ N",
    "longitude": "72°58′25″ E",
    "City": "Mumbai",
    "State": "Maharahstra",
    "foodItems": "ice-cream",
    "foodItems": "sodas",
    "hygieneRating": "4 star",
    "tasteRating": "5 star",
    "hospitalityRating": "5 star",
    "photoUrl": "https://res.cloudinary.com/dcafi44ej/image/upload/v1736258288/aaikrupa_tc2tpt.jpg"
  },
  {
    "name": "Sham",
    "location__type": "",
    "latitude": "19°11′41″ N",
    "longitude": "72°58′32″ E",
    "City": "Mumbai",
    "State": "Maharahstra",
    "foodItems": "pav bhaji",
    "foodItems": "vada pav",
    "hygieneRating": "3 star",
    "tasteRating": "4 star",
    "hospitalityRating": "4 star",
    "photoUrl": "https://res.cloudinary.com/dcafi44ej/image/upload/v1736258789/Screenshot_2025-01-07_at_7.32.45_PM_y5ispu.png"
  },
  {
    "name": "Bharat Lal Ice Cream Centre",
    "location__type": "",
    "latitude": "19°11′41″ N",
    "longitude": "72°58′32″ E",
    "City": "Mumbai",
    "State": "Maharahstra",
    "foodItems": "ice-cream",
    "foodItems": "gola",
    "hygieneRating": "3 star",
    "tasteRating": "3 star",
    "hospitalityRating": "5 star",
    "photoUrl": "https://res.cloudinary.com/dcafi44ej/image/upload/v1736258984/Screenshot_2025-01-07_at_7.33.10_PM_znzkjd.png"
  },
  {
    "name": "Steam Hot momos",
    "location__type": "",
    "latitude": "19°11′30″ N",
    "longitude": "72°58′2″ E",
    "City": "Mumbai",
    "State": "Maharahstra",
    "foodItems": "momos",
    "foodItems": "noodles",
    "hygieneRating": "2 star",
    "tasteRating": "5 star",
    "hospitalityRating": "3 star",
    "photoUrl": "https://res.cloudinary.com/dcafi44ej/image/upload/v1736430257/IMG_0890_hufuz9.jpg"
  },
  {
    "name": "Jai Mata Di dabeli centre",
    "location__type": "",
    "latitude": "19°11′37″ N",
    "longitude": "72°58′4″ E",
    "City": "Mumbai",
    "State": "Maharahstra",
    "foodItems": "dabeli",
    "foodItems": "pav bhaji",
    "hygieneRating": "3 star",
    "tasteRating": "4 star",
    "hospitalityRating": "2 star",
    "photoUrl": "https://res.cloudinary.com/dcafi44ej/image/upload/v1736430772/jaimatadabeli_ubtj5z.jpg"
  },
  {
    "name": "Narial Wala",
    "location__type": "",
    "latitude": "19°11′41″ N",
    "longitude": "72°58′0″ E",
    "City": "Mumbai",
    "State": "Maharahstra",
    "foodItems": "coconut",
    "foodItems": "juice",
    "hygieneRating": "2 star",
    "tasteRating": "3 star",
    "hospitalityRating": "4 star",
    "photoUrl": "https://res.cloudinary.com/dcafi44ej/image/upload/v1736431062/narial_wala_n67shm.jpg"
  },
  {
    "name": "Gopi sandwich",
    "location__type": "",
    "latitude": "19°11′42″ N",
    "longitude": "72°58′0″ E",
    "City": "Mumbai",
    "State": "Maharahstra",
    "foodItems": "sandwich",
    "foodItems": "burger",
    "hygieneRating": "3 star",
    "tasteRating": "4 star",
    "hospitalityRating": "5 star",
    "photoUrl": "https://res.cloudinary.com/dcafi44ej/image/upload/v1736430958/gopisandwich_kbco0e.jpg"
  },
  {
    "name": "Apte Joshi vada pav",
    "location__type": "",
    "latitude": "19°11′42″ N",
    "longitude": "72°58′0″ E",
    "City": "Mumbai",
    "State": "Maharahstra",
    "foodItems": "vada pav",
    "foodItems": "misal pav",
    "hygieneRating": "4 star",
    "tasteRating": "5 star",
    "hospitalityRating": "3 star",
    "photoUrl": "https://res.cloudinary.com/dcafi44ej/image/upload/v1736431563/aptehjoshi_vbzwrk.jpg"
  },
  {
    "name": "Mhatre snacks corner",
    "location__type": "",
    "latitude": "19°11′43″ N",
    "longitude": "72°57′57″ E",
    "City": "Mumbai",
    "State": "Maharahstra",
    "foodItems": "samosa",
    "foodItems": "vada pav",
    "hygieneRating": "2 star",
    "tasteRating": "3 star",
    "hospitalityRating": "5 star",
    "photoUrl": "https://res.cloudinary.com/dcafi44ej/image/upload/v1736431602/mhatre_xvoeyy.jpg"
  },
  {
    "name": "The happy samosa",
    "location__type": "",
    "latitude": "19°11′43″ N",
    "longitude": "72°57′57″ E",
    "City": "Mumbai",
    "State": "Maharahstra",
    "foodItems": "samosa",
    "foodItems": "kachori",
    "hygieneRating": "5 star",
    "tasteRating": "4 star",
    "hospitalityRating": "5 star",
    "photoUrl": "https://res.cloudinary.com/dcafi44ej/image/upload/v1736431646/happysamosa_p8bhxk.jpg"
  },
  {
    "name": "Jai Maharashtra Chinese corner",
    "location__type": "",
    "latitude": "19°11′43″ N",
    "longitude": "72°57′57″ E",
    "City": "Mumbai",
    "State": "Maharahstra",
    "foodItems": "chowmein",
    "foodItems": "manchurian",
    "hygieneRating": "3 star",
    "tasteRating": "3 star",
    "hospitalityRating": "3 star",
    "photoUrl": "https://res.cloudinary.com/dcafi44ej/image/upload/v1736432004/maharahstra_chinese_fbvkok.jpg"
  },
  {
    "name": "Gupta Bhel Puri and Snacks",
    "location__type": "",
    "latitude": "19.283664° N",
    "longitude": "72.819935° E",
    "City": "Mumbai",
    "State": "Maharahstra",
    "foodItems": "bhel puri/sev puri",
    "foodItems": "cheese blast sandwich",
    "hygieneRating": "4 star",
    "tasteRating": "4 star",
    "hospitalityRating": "4 star",
    "photoUrl": "https://res.cloudinary.com/dmf9sk3jv/image/upload/v1736503121/Screenshot_2025-01-10_at_3.28.20_PM_mtqxeh.png"
  },
  {
    "name": "Seena chinese corner",
    "location__type": "",
    "latitude": "19.20030 ° N",
    "longitude": "72°57′56″ E",
    "City": "Mumbai",
    "State": "Maharashtra",
    "foodItems": "noodles",
    "foodItems": "manchurian",
    "hygieneRating": "2 star",
    "tasteRating": "3 star",
    "hospitalityRating": "3 star",
    "photoUrl": "https://res.cloudinary.com/dcafi44ej/image/upload/v1736503401/seenachinese_qqwuxz.jpg"
  },
  {
    "name": "Gupta Snacks",
    "location__type": "",
    "latitude": "19.2107° N",
    "longitude": "72.8397 ° E",
    "City": "Mumbai",
    "State": "Maharashtra",
    "foodItems": "panini sandwich",
    "foodItems": "sev puri, pizza",
    "hygieneRating": "2 star",
    "tasteRating": "3 star",
    "hospitalityRating": "3 star",
    "photoUrl": "https://res.cloudinary.com/dmf9sk3jv/image/upload/v1736504478/Screenshot_2025-01-10_at_3.50.57_PM_hn36gi.png"
  },
  {
    "name": "Navdurga Vadapav",
    "location__type": "",
    "latitude": "19.21377° N",
    "longitude": "72.84152 ° E",
    "City": "Mumbai",
    "State": "Maharashtra",
    "foodItems": "masala vada pav",
    "foodItems": "cheese vada pav",
    "hygieneRating": "4 star",
    "tasteRating": "5 star",
    "hospitalityRating": "5 star",
    "photoUrl": "https://res.cloudinary.com/dmf9sk3jv/image/upload/v1736505072/Screenshot_2025-01-10_at_4.00.52_PM_dtv5yf.png"
  },
  {
    "name": "The Paandaa Momos",
    "location__type": "",
    "latitude": "19.21241° N",
    "longitude": "72.83942° E",
    "City": "Mumbai",
    "State": "Maharashtra",
    "foodItems": "fried/veg momos",
    "foodItems": "afgani/supreme momos",
    "hygieneRating": "3 star",
    "tasteRating": "4 star",
    "hospitalityRating": "4 star",
    "photoUrl": "https://res.cloudinary.com/dmf9sk3jv/image/upload/v1736505447/Screenshot_2025-01-10_at_4.06.51_PM_kmkrku.png"
  },
  {
    "name": "UFO Fries and Corn",
    "location__type": "",
    "latitude": "19.21184° N",
    "longitude": "72.87516° E",
    "City": "Mumbai",
    "State": "Maharashtra",
    "foodItems": "burger/fries",
    "foodItems": "hot chocolate/drinks",
    "hygieneRating": "4 star",
    "tasteRating": "5 star",
    "hospitalityRating": "5 star",
    "photoUrl": "https://res.cloudinary.com/dmf9sk3jv/image/upload/v1736505968/Screenshot_2025-01-10_at_4.15.43_PM_fl4c1r.png"
  },
  {
    "name": "Mexibay",
    "location__type": "",
    "latitude": "19.21396°N",
    "longitude": "72.84119° E",
    "City": "Mumbai",
    "State": "Maharashtra",
    "foodItems": "loaded tacos",
    "foodItems": "loaded nachos",
    "hygieneRating": "5 star",
    "tasteRating": "4 star",
    "hospitalityRating": "4 star",
    "photoUrl": "https://res.cloudinary.com/dmf9sk3jv/image/upload/v1736506380/Screenshot_2025-01-10_at_4.22.39_PM_zxg0ps.png"
  },
  {
    "name": "Pure Veg Shawarma",
    "location__type": "",
    "latitude": "19.21152°N",
    "longitude": "72.84167°E",
    "City": "Mumbai",
    "State": "Maharashtra",
    "foodItems": "shwarma",
    "foodItems": "loaded fries",
    "hygieneRating": "5 star",
    "tasteRating": "5 star",
    "hospitalityRating": "5 star",
    "photoUrl": "https://res.cloudinary.com/dmf9sk3jv/image/upload/v1736506499/Screenshot_2025-01-10_at_4.24.40_PM_ukzz8m.png"
  },
  {
    "name": "Radha Krishna Fast Food Center",
    "location__type": "",
    "latitude": "19.21051°N",
    "longitude": "72.84008°E",
    "City": "Mumbai",
    "State": "Maharashtra",
    "foodItems": "schezwan noodles/rice",
    "foodItems": "manchow soup",
    "hygieneRating": "4 star",
    "tasteRating": "5 star",
    "hospitalityRating": "4 star",
    "photoUrl": "https://res.cloudinary.com/dmf9sk3jv/image/upload/v1736506690/Screenshot_2025-01-10_at_4.26.46_PM_ltca8i.png"
  },
  {
    "name": "Stomach House",
    "location__type": "",
    "latitude": "19.10800°N",
    "longitude": "72.82369°E",
    "City": "Mumbai",
    "State": "Maharashtra",
    "foodItems": "pav bhaji/pasta",
    "foodItems": "falooda",
    "hygieneRating": "4 star",
    "tasteRating": "5 star",
    "hospitalityRating": "5 star",
    "photoUrl": "https://res.cloudinary.com/dmf9sk3jv/image/upload/v1736507574/Screenshot_2025-01-10_at_4.41.56_PM_grinam.png"
  },
  {
    "name": "Punjab Da Chulah",
    "location__type": "",
    "latitude": "19.11163°N",
    "longitude": "72.82673°E",
    "City": "Mumbai",
    "State": "Maharashtra",
    "foodItems": "cheese garlic kulcha",
    "foodItems": "lassi",
    "hygieneRating": "4 star",
    "tasteRating": "5 star",
    "hospitalityRating": "4 star",
    "photoUrl": "https://res.cloudinary.com/dmf9sk3jv/image/upload/v1736507964/Screenshot_2025-01-10_at_4.47.00_PM_oiiytn.png"
  },
  {
    "name": "Shree Ram Pav Bhaji",
    "location__type": "",
    "latitude": "19.10025°N",
    "longitude": "72.82863°E",
    "City": "Mumbai",
    "State": "Maharashtra",
    "foodItems": "pav bhaji",
    "foodItems": "onion cheese pan",
    "hygieneRating": "3 star",
    "tasteRating": "4 star",
    "hospitalityRating": "4 star",
    "photoUrl": "https://res.cloudinary.com/dmf9sk3jv/image/upload/v1736520455/Screenshot_2025-01-10_at_8.17.11_PM_q4hlf5.png"
  },
  {
    "name": "Garib Nawaz caterer",
    "location__type": "",
    "latitude": "19°11′55″ N",
    "longitude": "72°57′56″E",
    "City": "Mumbai",
    "State": "Maharahstra",
    "foodItems": "biryani",
    "foodItems": "ice-cream",
    "hygieneRating": "3 star",
    "tasteRating": "5 star",
    "hospitalityRating": "5 star",
    "photoUrl": "https://res.cloudinary.com/dcafi44ej/image/upload/v1736589230/garib_nawaz_jozjyf.jpg"
  },
  {
    "name": "Ghubu foods",
    "location__type": "",
    "latitude": "19°11′55″ N",
    "longitude": "72°57′56″ E",
    "City": "Mumbai",
    "State": "Maharashtra",
    "foodItems": "vada pav",
    "foodItems": "misal pav",
    "hygieneRating": "2 star",
    "tasteRating": "3 star",
    "hospitalityRating": "4 star",
    "photoUrl": "https://res.cloudinary.com/dcafi44ej/image/upload/v1736589397/ghubufoods_rbakos.jpg"
  },
  {
    "name": "Momos corner",
    "location__type": "",
    "latitude": "19°11′56″ N",
    "longitude": "72°57′55″ E",
    "City": "Mumbai",
    "State": "Maharashtra",
    "foodItems": "momos",
    "foodItems": "shawarma",
    "hygieneRating": "3 star",
    "tasteRating": "4 star",
    "hospitalityRating": "2 star",
    "photoUrl": "https://res.cloudinary.com/dcafi44ej/image/upload/v1736589512/momos_corner_hzkd1b.jpg"
  },
  {
    "name": "Seven star chinese corner",
    "location__type": "",
    "latitude": "19°11′56″ N",
    "longitude": "72°57′55″ E",
    "City": "Mumbai",
    "State": "Maharashtra",
    "foodItems": "chowmein",
    "foodItems": "noodles",
    "hygieneRating": "3 star",
    "tasteRating": "2 star",
    "hospitalityRating": "5 star",
    "photoUrl": "https://res.cloudinary.com/dcafi44ej/image/upload/v1736589929/sevenstarchinese_rajiyy.jpg"
  },
  {
    "name": "Famouse juice centre",
    "location__type": "",
    "latitude": "19°11′53″ N",
    "longitude": "72°58′5″ E",
    "City": "Mumbai",
    "State": "Maharashtra",
    "foodItems": "juice",
    "foodItems": "falooda",
    "hygieneRating": "3 star",
    "tasteRating": "5 star",
    "hospitalityRating": "5 star",
    "photoUrl": "https://res.cloudinary.com/dcafi44ej/image/upload/v1736590064/famousejuice_wzsqn9.jpg"
  },
  {
    "name": "Laadki bahin corner",
    "location__type": "",
    "latitude": "19°11′49″ N",
    "longitude": "72°58′10″ E",
    "City": "Mumbai",
    "State": "Maharahstra",
    "foodItems": "fries",
    "foodItems": "momos",
    "hygieneRating": "3 star",
    "tasteRating": "3 star",
    "hospitalityRating": "3 star",
    "photoUrl": "https://res.cloudinary.com/dcafi44ej/image/upload/v1736590316/ladkibahin_dhf8ib.jpg"
  },
  {
    "name": "Flavours of spice",
    "location__type": "",
    "latitude": "19°11′21″ N",
    "longitude": "72°58′20″ E",
    "City": "Mumbai",
    "State": "Maharashtra",
    "foodItems": "pani puri",
    "foodItems": "sodas",
    "hygieneRating": "5 star",
    "tasteRating": "5 star",
    "hospitalityRating": "4 star",
    "photoUrl": "https://res.cloudinary.com/dcafi44ej/image/upload/v1736590753/spices_g58wem.jpg"
  },
  {
    "name": "Shri Krishna",
    "location__type": "",
    "latitude": "19°11′21″ N",
    "longitude": "72°58′20″ E",
    "City": "Mumbai",
    "State": "Maharashtra",
    "foodItems": "pav bhaji",
    "foodItems": "sev puri",
    "hygieneRating": "5 star",
    "tasteRating": "3 star",
    "hospitalityRating": "4 star",
    "photoUrl": "https://res.cloudinary.com/dcafi44ej/image/upload/v1736590960/shri_krishna_xp4k2f.jpg"
  },
  {
    "name": "Apte Joshi vada pav",
    "location__type": "",
    "latitude": "19°11′20″ N",
    "longitude": "72°58′18″ E",
    "City": "Mumbai",
    "State": "Maharashtra",
    "foodItems": "vada pav",
    "foodItems": "dabeli",
    "hygieneRating": "3 star",
    "tasteRating": "5 star",
    "hospitalityRating": "5 star",
    "photoUrl": "https://res.cloudinary.com/dcafi44ej/image/upload/v1736591277/apte_joshi_2_zoua1f.jpg"
  },
  {
    "name": "Shradha farsan mart",
    "location__type": "",
    "latitude": "19°11′33″ N",
    "longitude": "72°58′15″ E",
    "City": "Mumbai",
    "State": "Maharashtra",
    "foodItems": "samosa",
    "foodItems": "vada pav",
    "hygieneRating": "3 star",
    "tasteRating": "5 star",
    "hospitalityRating": "4 star",
    "photoUrl": "https://res.cloudinary.com/dcafi44ej/image/upload/v1736591799/shradha_farsan_nqssct.jpg"
  },
  {
    "name": "Saatvik chaat corner",
    "location__type": "",
    "latitude": "19°11′43″ N",
    "longitude": "72°58′25″ E",
    "City": "Mumbai",
    "State": "Maharashtra",
    "foodItems": "sev puri",
    "foodItems": "momos",
    "hygieneRating": "4 star",
    "tasteRating": "5 star",
    "hospitalityRating": "2 star",
    "photoUrl": "https://res.cloudinary.com/dcafi44ej/image/upload/v1736591910/saatvik_chaat_tukoqc.jpg"
  },
  {
    "name": "Badshah cold drinks",
    "location__type": "",
    "latitude": "18°57′02″ N",
    "longitude": "72°50′05″ E",
    "City": "Mumbai",
    "State": "Maharahstra",
    "foodItems": "falooda",
    "foodItems": "juices",
    "hygieneRating": "5 star",
    "tasteRating": "5 star",
    "hospitalityRating": "5 star",
    "photoUrl": "https://res.cloudinary.com/dcafi44ej/image/upload/v1737121602/badshah_cold_rink_owq3ux.jpg"
  },
  {
    "name": "Bademiya roll counter",
    "location__type": "",
    "latitude": "18°57′02″ N",
    "longitude": "72°50′05″ E",
    "City": "Mumbai",
    "State": "Maharahstra",
    "foodItems": "kebabs",
    "foodItems": "rolls",
    "hygieneRating": "4 star",
    "tasteRating": "5 star",
    "hospitalityRating": "4 star",
    "photoUrl": "https://res.cloudinary.com/dcafi44ej/image/upload/v1737121843/bademiya_aeog2j.jpg"
  },
  {
    "name": "Canon pav bhaji",
    "location__type": "",
    "latitude": "18°57′02″ N",
    "longitude": "72°50′05″ E",
    "City": "Mumbai",
    "State": "Maharahstra",
    "foodItems": "pav bhaji",
    "foodItems": "vada pav",
    "hygieneRating": "3 star",
    "tasteRating": "5 star",
    "hospitalityRating": "5 star",
    "photoUrl": "https://res.cloudinary.com/dcafi44ej/image/upload/v1737121990/cannon_wvupq0.avif"
  },
  {
    "name": "Anand stall",
    "location__type": "",
    "latitude": "19°05′56″ N",
    "longitude": "72°49′37″ E",
    "City": "Mumbai",
    "State": "Maharahstra",
    "foodItems": "vada pav",
    "foodItems": "sandwich",
    "hygieneRating": "3 star",
    "tasteRating": "4 star",
    "hospitalityRating": "5 star",
    "photoUrl": "https://res.cloudinary.com/dcafi44ej/image/upload/v1737122146/anand_u80yu3.jpg"
  },
  {
    "name": "New mumbai pav bhaji",
    "location__type": "",
    "latitude": "19°05′56″ N",
    "longitude": "72°49′37″ E",
    "City": "Mumbai",
    "State": "Maharahstra",
    "foodItems": "pav bhaji",
    "foodItems": "dabeli",
    "hygieneRating": "2 star",
    "tasteRating": "4 star",
    "hospitalityRating": "3 star",
    "photoUrl": "https://res.cloudinary.com/dcafi44ej/image/upload/v1737122388/newmumbai_hmjuhb.jpg"
  },
  {
    "name": "Bhel puri and Chaat centre",
    "location__type": "",
    "latitude": "19°05′56″ N",
    "longitude": "72°49′37″ E",
    "City": "Mumbai",
    "State": "Maharahstra",
    "foodItems": "bhel puri/sev puri",
    "foodItems": "samosa",
    "hygieneRating": "2 star",
    "tasteRating": "3 star",
    "hospitalityRating": "3 star",
    "photoUrl": "https://res.cloudinary.com/dcafi44ej/image/upload/v1737122512/bhelpuriandchaat_juhscr.jpg"
  },
  {
    "name": "Pav Bhaji chinese",
    "location__type": "",
    "latitude": "18°57′15″ N",
    "longitude": "72°48′44″ E",
    "City": "Mumbai",
    "State": "Maharahstra",
    "foodItems": "pav bhaji",
    "foodItems": "chowmein",
    "hygieneRating": "4 star",
    "tasteRating": "3 star",
    "hospitalityRating": "2 star",
    "photoUrl": "https://res.cloudinary.com/dcafi44ej/image/upload/v1737122762/pavbhajichinese_aqtzrp.jpg"
  },
  {
    "name": "Kapoor Punjabi kulfi",
    "location__type": "",
    "latitude": "18°57′15″ N",
    "longitude": "72°48′44″ E",
    "City": "Mumbai",
    "State": "Maharahstra",
    "foodItems": "kulfi",
    "foodItems": "gola",
    "hygieneRating": "5 star",
    "tasteRating": "5 star",
    "hospitalityRating": "3 star",
    "photoUrl": "https://res.cloudinary.com/dcafi44ej/image/upload/v1737122848/kapoor_ic7mqq.jpg"
  },
  {
    "name": "Karthik pav bhaji",
    "location__type": "",
    "latitude": "18°57′15″ N",
    "longitude": "72°48′44″ E",
    "City": "Mumbai",
    "State": "Maharahstra",
    "foodItems": "pav bhaji",
    "foodItems": "vada pav",
    "hygieneRating": "3 star",
    "tasteRating": "4 star",
    "hospitalityRating": "3 star",
    "photoUrl": "https://res.cloudinary.com/dcafi44ej/image/upload/v1737123007/karthik_ltuelo.jxl"
  },
  {
    "name": "Mashallah",
    "location__type": "",
    "latitude": "18°57′26″ N",
    "longitude": "72°50′04″ E",
    "City": "Mumbai",
    "State": "Maharahstra",
    "foodItems": "biryani",
    "foodItems": "samosa",
    "hygieneRating": "2 star",
    "tasteRating": "3 star",
    "hospitalityRating": "3 star",
    "photoUrl": "https://res.cloudinary.com/dcafi44ej/image/upload/v1737123230/mashallah_umxicv.webp"
  },
  {
    "name": "Shabbir's sweets",
    "location__type": "",
    "latitude": "18°57′26″ N",
    "longitude": "72°50′04″ E",
    "City": "Mumbai",
    "State": "Maharahstra",
    "foodItems": "ice cream",
    "foodItems": "kulfi",
    "hygieneRating": "4 star",
    "tasteRating": "5 star",
    "hospitalityRating": "2 star",
    "photoUrl": "https://res.cloudinary.com/dcafi44ej/image/upload/v1737123398/shabir_shfxbv.webp"
  },
  {
    "name": "Lenin pav bhaji",
    "location__type": "",
    "latitude": "19°05′05″ N",
    "longitude": "72°54′32″ E",
    "City": "Mumbai",
    "State": "Maharahstra",
    "foodItems": "pav bhaji",
    "foodItems": "manchurian",
    "hygieneRating": "2 star",
    "tasteRating": "2 star",
    "hospitalityRating": "2 star",
    "photoUrl": "https://res.cloudinary.com/dcafi44ej/image/upload/v1737123609/lenin_ztevuw.jpg"
  },
  {
    "name": "Jay Ganesh vada pav",
    "location__type": "",
    "latitude": "19°05′05″ N",
    "longitude": "72°54′32″ E",
    "City": "Mumbai",
    "State": "Maharahstra",
    "foodItems": "vada pav",
    "foodItems": "tea",
    "hygieneRating": "2 star",
    "tasteRating": "3 star",
    "hospitalityRating": "5 star",
    "photoUrl": "https://res.cloudinary.com/dcafi44ej/image/upload/v1737124020/jaiganesh_hjiisg.webp"
  },
  {
    "name": "Lalit bhel puri",
    "location__type": "",
    "latitude": "19°05′05″ N",
    "longitude": "72°54′32″ E",
    "City": "Mumbai",
    "State": "Maharahstra",
    "foodItems": "bhel puri/sev puri",
    "foodItems": "kachori",
    "hygieneRating": "2 star",
    "tasteRating": "3 star",
    "hospitalityRating": "5 star",
    "photoUrl": "https://res.cloudinary.com/dcafi44ej/image/upload/v1737124203/lalit_gemkj8.jpg"
  },
  {
    "name": "Cornasm",
    "location__type": "",
    "latitude": "19°03′49″ N",
    "longitude": "72°49′46″ E",
    "City": "Mumbai",
    "State": "Maharahstra",
    "foodItems": "corn",
    "foodItems": "",
    "hygieneRating": "2 star",
    "tasteRating": "2 star",
    "hospitalityRating": "3 star",
    "photoUrl": "https://res.cloudinary.com/dcafi44ej/image/upload/v1737124757/cornasm_sf1r47.jpg"
  },
  {
    "name": "Juice n more",
    "location__type": "",
    "latitude": "19°03′49″ N",
    "longitude": "72°49′46″ E",
    "City": "Mumbai",
    "State": "Maharahstra",
    "foodItems": "juice",
    "foodItems": "falooda",
    "hygieneRating": "3 star",
    "tasteRating": "3 star",
    "hospitalityRating": "3 star",
    "photoUrl": "https://res.cloudinary.com/dcafi44ej/image/upload/v1737124830/juicenmore_xquslf.avif"
  },
  {
    "name": "Amritsar dhaba",
    "location__type": "",
    "latitude": "19°03′49″ N",
    "longitude": "72°49′46″ E",
    "City": "Mumbai",
    "State": "Maharahstra",
    "foodItems": "kulcha",
    "foodItems": "dal makhni",
    "hygieneRating": "3 star",
    "tasteRating": "5 star",
    "hospitalityRating": "5 star",
    "photoUrl": "https://res.cloudinary.com/dcafi44ej/image/upload/v1737124965/amritsardhaba_icrgci.avif"
  },
  {
    "name": "Shivsagar bhelpuri",
    "location__type": "",
    "latitude": "18°55′18″ N",
    "longitude": "72°50′00″ E",
    "City": "Mumbai",
    "State": "Maharahstra",
    "foodItems": "bhel puri/sev puri",
    "foodItems": "pani puri",
    "hygieneRating": "2 star",
    "tasteRating": "5 star",
    "hospitalityRating": "2 star",
    "photoUrl": "https://res.cloudinary.com/dcafi44ej/image/upload/v1737125227/shivsagarbhel_sxfbus.jpg"
  },
  {
    "name": "Balaji cafe",
    "location__type": "",
    "latitude": "19°01′14″ N",
    "longitude": "72°50′17″ E",
    "City": "Mumbai",
    "State": "Maharahstra",
    "foodItems": "idli",
    "foodItems": "medu vada",
    "hygieneRating": "3 star",
    "tasteRating": "4 star",
    "hospitalityRating": "4 star",
    "photoUrl": "https://res.cloudinary.com/dcafi44ej/image/upload/v1737125482/balajicafe_yxryjt.jpg"
  },
  {
    "name": "Vidhya food Tandoori corner",
    "location__type": "",
    "latitude": "19°01′14″ N",
    "longitude": "72°50′17″ E",
    "City": "Mumbai",
    "State": "Maharahstra",
    "foodItems": "chicken tandoori",
    "foodItems": "chicken tikka",
    "hygieneRating": "2 star",
    "tasteRating": "2 star",
    "hospitalityRating": "2 star",
    "photoUrl": "https://res.cloudinary.com/dcafi44ej/image/upload/v1737125610/vidhyafood_qieral.webp"
  },
  {
    "name": "Tibb's Frankie",
    "location__type": "",
    "latitude": "19°01′14″ N",
    "longitude": "72°50′17″ E",
    "City": "Mumbai",
    "State": "Maharahstra",
    "foodItems": "frankie",
    "foodItems": "",
    "hygieneRating": "5 star",
    "tasteRating": "5 star",
    "hospitalityRating": "4 star",
    "photoUrl": "https://res.cloudinary.com/dcafi44ej/image/upload/v1737261598/Tibb_s_Frakie_zwcezq.webp"
  },
  {
    "name": "Samaadhan",
    "location__type": "",
    "latitude": "19°01′40″ N",
    "longitude": "72°51′50″ E",
    "City": "Mumbai",
    "State": "Maharashtra",
    "foodItems": "dosa",
    "foodItems": "pani puri",
    "hygieneRating": "4 star",
    "tasteRating": "4 star",
    "hospitalityRating": "4 star",
    "photoUrl": "https://res.cloudinary.com/dcafi44ej/image/upload/v1737261665/samadhan_dxhhf8.webp"
  },
  {
    "name": "Shri Swami Samarth fast food",
    "location__type": "",
    "latitude": "19°01′40″ N",
    "longitude": "72°51′50″ E",
    "City": "Mumbai",
    "State": "Maharashtra",
    "foodItems": "sandwich",
    "foodItems": "juices",
    "hygieneRating": "3 star",
    "tasteRating": "4 star",
    "hospitalityRating": "3 star",
    "photoUrl": "https://res.cloudinary.com/dcafi44ej/image/upload/v1737261841/shri_swami_samarth_fastfood_yh9wee.jpg"
  },
  {
    "name": "K Town",
    "location__type": "",
    "latitude": "19°12′51″ N",
    "longitude": "72°58′43″ E",
    "City": "Mumbai",
    "State": "Maharashtra",
    "foodItems": "noodles",
    "foodItems": "burger",
    "hygieneRating": "3 star",
    "tasteRating": "5 star",
    "hospitalityRating": "2 star",
    "photoUrl": "https://res.cloudinary.com/dcafi44ej/image/upload/v1737262217/K_town_unjrws.jpg"
  },
  {
    "name": "Classic fast food corner",
    "location__type": "",
    "latitude": "19°12′40″ N",
    "longitude": "72°51′15″ E",
    "City": "Mumbai",
    "State": "Maharashtra",
    "foodItems": "pav bhaji",
    "foodItems": "pulao",
    "hygieneRating": "3 star",
    "tasteRating": "2 star",
    "hospitalityRating": "5 star",
    "photoUrl": "https://res.cloudinary.com/dcafi44ej/image/upload/v1737262390/classicfastfood_xhet53.avif"
  },
  {
    "name": "Khau Gali",
    "location__type": "",
    "latitude": "19°12′40″ N",
    "longitude": "72°51′15″ E",
    "City": "Mumbai",
    "State": "Maharashtra",
    "foodItems": "vada pav",
    "foodItems": "samosa",
    "hygieneRating": "4 star",
    "tasteRating": "4 star",
    "hospitalityRating": "3 star",
    "photoUrl": "https://res.cloudinary.com/dcafi44ej/image/upload/v1737262541/khau_xinflm.jpgm.jpg"
  },
  {
    "name": "Jai Maharashtra Fast food",
    "location__type": "",
    "latitude": "19°12′40″ N",
    "longitude": "72°51′15″ E",
    "City": "Mumbai",
    "State": "Maharashtra",
    "foodItems": "samosa",
    "foodItems": "vada pav",
    "hygieneRating": "2 star",
    "tasteRating": "2 star",
    "hospitalityRating": "4 star",
    "photoUrl": "https://res.cloudinary.com/dcafi44ej/image/upload/v1737262684/jaimaharahstrafast_ftqdae.avif"
  },
  {
    "name": "Sharma Chaat Bhandar",
    "location__type": "",
    "latitude": "19°07′50″ N",
    "longitude": "72°50′10″ E",
    "City": "Mumbai",
    "State": "Maharashtra",
    "foodItems": "pani puri",
    "foodItems": "sev puri",
    "hygieneRating": "3 star",
    "tasteRating": "5 star",
    "hospitalityRating": "3 star",
    "photoUrl": "https://res.cloudinary.com/dcafi44ej/image/upload/v1738334042/sharmachatbhandar_lzt21a.webp"
  },
  {
    "name": "Breadkraft",
    "location__type": "",
    "latitude": "19°07′50″ N",
    "longitude": "72°50′10″ E",
    "City": "Mumbai",
    "State": "Maharashtra",
    "foodItems": "nuggets",
    "foodItems": "juices",
    "hygieneRating": "2 star",
    "tasteRating": "4 star",
    "hospitalityRating": "3 star",
    "photoUrl": "https://res.cloudinary.com/dcafi44ej/image/upload/v1738334129/breadkraft_rdmawu.avif"
  },
  {
    "name": "Twistix",
    "location__type": "",
    "latitude": "19°07′50″ N",
    "longitude": "72°50′10″ E",
    "City": "Mumbai",
    "State": "Maharashtra",
    "foodItems": "potato sticks",
    "foodItems": "burger",
    "hygieneRating": "5 star",
    "tasteRating": "4 star",
    "hospitalityRating": "5 star",
    "photoUrl": "https://res.cloudinary.com/dcafi44ej/image/upload/v1738334245/twistix_wvdhug.avif"
  },
  {
    "name": "Famous Malai Wala",
    "location__type": "",
    "latitude": "19°11′12″ N",
    "longitude": "72°58′43″ E",
    "City": "Mumbai",
    "State": "Maharashtra",
    "foodItems": "gola",
    "foodItems": "ice cream",
    "hygieneRating": "3 star",
    "tasteRating": "5 star",
    "hospitalityRating": "4 star",
    "photoUrl": "https://res.cloudinary.com/dcafi44ej/image/upload/v1738334397/famous_malai_fgtkch.avif"
  },
  {
    "name": "Mahadev ice gola",
    "location__type": "",
    "latitude": "19°11′12″ N",
    "longitude": "72°58′43″ E",
    "City": "Mumbai",
    "State": "Maharashtra",
    "foodItems": "gola",
    "foodItems": "ice cream",
    "hygieneRating": "5 star",
    "tasteRating": "5 star",
    "hospitalityRating": "3 star",
    "photoUrl": "https://res.cloudinary.com/dcafi44ej/image/upload/v1738334517/mahadev_ice_lzrm7d.webp"
  },
  {
    "name": "Agar kalla khata",
    "location__type": "",
    "latitude": "19°11′12″ N",
    "longitude": "72°58′43″ E",
    "City": "Mumbai",
    "State": "Maharahstra",
    "foodItems": "gola",
    "foodItems": "rabdi",
    "hygieneRating": "2 star",
    "tasteRating": "5 star",
    "hospitalityRating": "4 star",
    "photoUrl": "https://res.cloudinary.com/dcafi44ej/image/upload/v1738334617/agar_kalla_khatta_ujqkxa.webp"
  },
  {
    "name": "Sardar Paya house",
    "location__type": "",
    "latitude": "19°02′28″ N",
    "longitude": "72°52′19″ E",
    "City": "Mumbai",
    "State": "Maharashtra",
    "foodItems": "butter chicken",
    "foodItems": "naan",
    "hygieneRating": "5 star",
    "tasteRating": "4 star",
    "hospitalityRating": "3 star",
    "photoUrl": "https://res.cloudinary.com/dcafi44ej/image/upload/v1738334976/sardar_paya_house_yhufth.jpg"
  },
  {
    "name": "Amrisar Kulcha and chole",
    "location__type": "",
    "latitude": "19°02′28″ N",
    "longitude": "72°52′19″ E",
    "City": "Mumbai",
    "State": "Maharashtra",
    "foodItems": "chhole",
    "foodItems": "kulcha",
    "hygieneRating": "3 star",
    "tasteRating": "5 star",
    "hospitalityRating": "5 star",
    "photoUrl": "https://res.cloudinary.com/dcafi44ej/image/upload/v1738335073/amristsar_kulcha_chole_er6cdc.webp"
  },
  {
    "name": "Manjit Chole puri wala",
    "location__type": "",
    "latitude": "19°02′28″ N",
    "longitude": "72°52′19″ E",
    "City": "Mumbai",
    "State": "Maharashtra",
    "foodItems": "chole",
    "foodItems": "puri",
    "hygieneRating": "3 star",
    "tasteRating": "4 star",
    "hospitalityRating": "3 star",
    "photoUrl": "https://res.cloudinary.com/dcafi44ej/image/upload/v1738335142/Manjeet_chole_puri_rbx49x.jpg"
  },
  {
    "name": "Krishna chaat centre",
    "location__type": "",
    "latitude": "18°57′32″ N",
    "longitude": "72°49′59″ E",
    "City": "Mumbai",
    "State": "Maharashtra",
    "foodItems": "pani puri",
    "foodItems": "bhel",
    "hygieneRating": "4 star",
    "tasteRating": "5 star",
    "hospitalityRating": "5 star",
    "photoUrl": "https://res.cloudinary.com/dcafi44ej/image/upload/v1738390547/krishna_chaat_centre_p3kder.jpg"
  },
  {
    "name": "Sai deep",
    "location__type": "",
    "latitude": "18°57′32″ N",
    "longitude": "72°49′59″ E",
    "City": "Mumbai",
    "State": "Maharahstra",
    "foodItems": "noodles",
    "foodItems": "manchurian",
    "hygieneRating": "3 star",
    "tasteRating": "4 star",
    "hospitalityRating": "4 star",
    "photoUrl": "https://res.cloudinary.com/dcafi44ej/image/upload/v1738390735/sai_deep_o56o8m.avif"
  },
  {
    "name": "Mastraam",
    "location__type": "",
    "latitude": "19°12′51″ N",
    "longitude": "72°50′15″ E",
    "City": "Mumbai",
    "State": "Maharashtra",
    "foodItems": "dosa",
    "foodItems": "pav bhaji",
    "hygieneRating": "3 star",
    "tasteRating": "3 star",
    "hospitalityRating": "5 star",
    "photoUrl": "https://res.cloudinary.com/dcafi44ej/image/upload/v1738391391/mastraam_bzsrci.jpg"
  },
  {
    "name": "Bestie toastie",
    "location__type": "",
    "latitude": "19°12′51″ N",
    "longitude": "72°50′15″ E",
    "City": "Mumbai",
    "State": "Maharashtra",
    "foodItems": "avacado toast",
    "foodItems": "juices",
    "hygieneRating": "2 star",
    "tasteRating": "5 star",
    "hospitalityRating": "3 star",
    "photoUrl": "https://res.cloudinary.com/dcafi44ej/image/upload/v1738391307/bestie_toastie_ofgyd2.jpg"
  },
  {
    "name": "Food for every mood",
    "location__type": "",
    "latitude": "19°12′51″ N",
    "longitude": "72°50′15″ E",
    "City": "Mumbai",
    "State": "Maharashtra",
    "foodItems": "samosa",
    "foodItems": "pani puri",
    "hygieneRating": "3 star",
    "tasteRating": "4 star",
    "hospitalityRating": "2 star",
    "photoUrl": "https://res.cloudinary.com/dcafi44ej/image/upload/v1738391308/food_for_every_mood_qbzyg6.jpg"
  },
  {
    "name": "Luscious waffles",
    "location__type": "",
    "latitude": "19°12′51″ N",
    "longitude": "72°50′15″ E",
    "City": "Mumbai",
    "State": "Maharashtra",
    "foodItems": "waffles",
    "foodItems": "cake",
    "hygieneRating": "2 star",
    "tasteRating": "3 star",
    "hospitalityRating": "4 star",
    "photoUrl": "https://res.cloudinary.com/dcafi44ej/image/upload/v1738391305/luscious_waffles_dfh2rz.jpg"
  },
  {
    "name": "Mera pasta hub",
    "location__type": "",
    "latitude": "19°12′51″ N",
    "longitude": "72°50′15″ E",
    "City": "Mumbai",
    "State": "Maharashtra",
    "foodItems": "pasta",
    "foodItems": "pizza",
    "hygieneRating": "3 star",
    "tasteRating": "4 star",
    "hospitalityRating": "5 star",
    "photoUrl": "https://res.cloudinary.com/dcafi44ej/image/upload/v1738391306/mera_pasta_hub_xbfv0q.jpg"
  },
  {
    "name": "Mexibay",
    "location__type": "",
    "latitude": "19°12′51″ N",
    "longitude": "72°50′15″ E",
    "City": "Mumbai",
    "State": "Maharahstra",
    "foodItems": "nachos",
    "foodItems": "burritos",
    "hygieneRating": "4 star",
    "tasteRating": "5 star",
    "hospitalityRating": "3 star",
    "photoUrl": "https://res.cloudinary.com/dcafi44ej/image/upload/v1738391306/mexibay_chu17m.jpg"
  },
  {
    "name": "Crime master momo",
    "location__type": "",
    "latitude": "19°12′51″ N",
    "longitude": "72°50′15″ E",
    "City": "Mumbai",
    "State": "Maharahstra",
    "foodItems": "momos",
    "foodItems": "chowmein",
    "hygieneRating": "2 star",
    "tasteRating": "3 star",
    "hospitalityRating": "5 star",
    "photoUrl": "https://res.cloudinary.com/dcafi44ej/image/upload/v1738391304/crime_master_momo_ewdrc6.jpg"
  },
  {
    "name": "Swiss waffle",
    "location__type": "",
    "latitude": "19°12′51″ N",
    "longitude": "72°50′15″ E",
    "City": "Mumbai",
    "State": "Maharahstra",
    "foodItems": "waffles",
    "foodItems": "ice cream",
    "hygieneRating": "5 star",
    "tasteRating": "4 star",
    "hospitalityRating": "5 star",
    "photoUrl": "https://res.cloudinary.com/dcafi44ej/image/upload/v1738391814/swiss_waffle_btp4ap.jpg"
  },
  {
    "name": "Healthy bites",
    "location__type": "",
    "latitude": "19°12′51″ N",
    "longitude": "72°50′15″ E",
    "City": "Mumbai",
    "State": "Maharahstra",
    "foodItems": "butter chicken",
    "foodItems": "chaap",
    "hygieneRating": "3 star",
    "tasteRating": "3 star",
    "hospitalityRating": "3 star",
    "photoUrl": "https://res.cloudinary.com/dcafi44ej/image/upload/v1738391307/health_bites_t6twjb.jpg"
  },
  {
    "name": "Corn Dog",
    "location__type": "",
    "latitude": "19°12′51″ N",
    "longitude": "72°50′15″ E",
    "City": "Mumbai",
    "State": "Maharahstra",
    "foodItems": "corn",
    "foodItems": "ramen",
    "hygieneRating": "4 star",
    "tasteRating": "4 star",
    "hospitalityRating": "4 star",
    "photoUrl": "https://res.cloudinary.com/dcafi44ej/image/upload/v1738391306/corn_dog_sg2tex.jpg"
  },
  {
    "name": "Anand Mithibai vada pav",
    "location__type": "",
    "latitude": "19°12′51″ N",
    "longitude": "72°50′15″ E",
    "City": "Mumbai",
    "State": "Maharahstra",
    "foodItems": "vada pav",
    "foodItems": "dosa",
    "hygieneRating": "2 star",
    "tasteRating": "3 star",
    "hospitalityRating": "3 star",
    "photoUrl": "https://res.cloudinary.com/dcafi44ej/image/upload/v1738391304/anand_mithi_bai_y5wiqt.jpg"
  },
  {
    "name": "DFC korean point",
    "location__type": "",
    "latitude": "19°12′51″ N",
    "longitude": "72°50′15″ E",
    "City": "Mumbai",
    "State": "Maharahstra",
    "foodItems": "maggi",
    "foodItems": "ramen",
    "hygieneRating": "2 star",
    "tasteRating": "3 star",
    "hospitalityRating": "3 star",
    "photoUrl": "https://res.cloudinary.com/dcafi44ej/image/upload/v1738391306/dfc_korean_point_hwj5cv.jpg"
  },
  {
    "name": "DFC kulhad pizza",
    "location__type": "",
    "latitude": "19°12′51″ N",
    "longitude": "72°50′15″ E",
    "City": "Mumbai",
    "State": "Maharahstra",
    "foodItems": "pizza",
    "foodItems": "juices",
    "hygieneRating": "4 star",
    "tasteRating": "5 star",
    "hospitalityRating": "5 star",
    "photoUrl": "https://res.cloudinary.com/dcafi44ej/image/upload/v1738391307/dfc_kulhad_pizza_cdghq8.jpg"
  },
  {
    "name": "Pooja malai gola",
    "location__type": "",
    "latitude": "19°12′51″ N",
    "longitude": "72°50′15″ E",
    "City": "Mumbai",
    "State": "Maharahstra",
    "foodItems": "gola",
    "foodItems": "ice cream",
    "hygieneRating": "3 star",
    "tasteRating": "4 star",
    "hospitalityRating": "4 star",
    "photoUrl": "https://res.cloudinary.com/dcafi44ej/image/upload/v1738392082/pooja_malai_gola_nr1zh6.jpg"
  },
  {
    "name": "Conical Gaufres",
    "location__type": "",
    "latitude": "19°12′51″ N",
    "longitude": "72°50′15″ E",
    "City": "Mumbai",
    "State": "Maharahstra",
    "foodItems": "stick waffles",
    "foodItems": "ice cream",
    "hygieneRating": "4 star",
    "tasteRating": "5 star",
    "hospitalityRating": "5 star",
    "photoUrl": "https://res.cloudinary.com/dcafi44ej/image/upload/v1738391307/conical_gaufres_mepb8u.jpg"
  },
  {
    "name": "Shri deva pani puri",
    "location__type": "",
    "latitude": "19°12′51″ N",
    "longitude": "72°50′15″ E",
    "City": "Mumbai",
    "State": "Maharahstra",
    "foodItems": "pani puri",
    "foodItems": "sev puri",
    "hygieneRating": "5 star",
    "tasteRating": "4 star",
    "hospitalityRating": "4 star",
    "photoUrl": "https://res.cloudinary.com/dcafi44ej/image/upload/v1738392200/shri_deva_pani_puri_wkr45x.jpg"
  },
  {
    "name": "London chocolate strawberries",
    "location__type": "",
    "latitude": "19°12′51″ N",
    "longitude": "72°50′15″ E",
    "City": "Mumbai",
    "State": "Maharahstra",
    "foodItems": "chocolate strawberry",
    "foodItems": "ice cream",
    "hygieneRating": "5 star",
    "tasteRating": "5 star",
    "hospitalityRating": "5 star",
    "photoUrl": "https://res.cloudinary.com/dcafi44ej/image/upload/v1738391305/london_choclate_strawberries_gsh7km.jpg"
  },
  {
    "name": "The korean house",
    "location__type": "",
    "latitude": "19°12′51″ N",
    "longitude": "72°50′15″ E",
    "City": "Mumbai",
    "State": "Maharahstra",
    "foodItems": "ramen",
    "foodItems": "sushi",
    "hygieneRating": "4 star",
    "tasteRating": "5 star",
    "hospitalityRating": "4 star",
    "photoUrl": "https://res.cloudinary.com/dcafi44ej/image/upload/v1738392918/the_korean_house_xyqquh.jpg"
  },
  {
    "name": "Best borivali faluda",
    "location__type": "",
    "latitude": "19°12′51″ N",
    "longitude": "72°50′15″ E",
    "City": "Mumbai",
    "State": "Maharahstra",
    "foodItems": "faluda",
    "foodItems": "ice cream",
    "hygieneRating": "4 star",
    "tasteRating": "5 star",
    "hospitalityRating": "5 star",
    "photoUrl": "https://res.cloudinary.com/dcafi44ej/image/upload/v1738391306/best_borivali_malai_centre_bhrnmq.jpg"
  },
  {
    "name": "Tandoor se and more",
    "location__type": "",
    "latitude": "19°12′51″ N",
    "longitude": "72°50′15″ E",
    "City": "Mumbai",
    "State": "Maharahstra",
    "foodItems": "paneer tikka",
    "foodItems": "chole",
    "hygieneRating": "4 star",
    "tasteRating": "5 star",
    "hospitalityRating": "4 star",
    "photoUrl": "https://res.cloudinary.com/dcafi44ej/image/upload/v1738393033/tandoor_se_and_more_fwhdic.jpg"
  },
  {
    "name": "Bevafa pani puri",
    "location__type": "",
    "latitude": "19°12′51″ N",
    "longitude": "72°50′15″ E",
    "City": "Mumbai",
    "State": "Maharahstra",
    "foodItems": "pani puri",
    "foodItems": "sev puri",
    "hygieneRating": "3 star",
    "tasteRating": "4 star",
    "hospitalityRating": "4 star",
    "photoUrl": "https://res.cloudinary.com/dcafi44ej/image/upload/v1738391307/bevafa_pani_puri_svobzz.jpg"
  },
  {
    "name": "Mani's",
    "location__type": "",
    "latitude": "19°11′24″ N",
    "longitude": "72°58′17″ E",
    "City": "Mumbai",
    "State": "Maharahstra",
    "foodItems": "dosa",
    "foodItems": "coffee",
    "hygieneRating": "5 star",
    "tasteRating": "4 star",
    "hospitalityRating": "5 star",
    "photoUrl": "https://res.cloudinary.com/dcafi44ej/image/upload/v1738680369/mani_s_slnszv.jpg"
  },
  {
    "name": "Gokhle misal pav",
    "location__type": "",
    "latitude": "19°11′24″ N",
    "longitude": "72°58′17″ E",
    "City": "Mumbai",
    "State": "Maharahstra",
    "foodItems": "misal pav",
    "foodItems": "samosa",
    "hygieneRating": "5 star",
    "tasteRating": "5 star",
    "hospitalityRating": "5 star",
    "photoUrl": "https://res.cloudinary.com/dcafi44ej/image/upload/v1738680459/gokhle_bc83zw.jpg"
  },
  {
    "name": "Ashok vada pav",
    "location__type": "",
    "latitude": "19°01′30″ N",
    "longitude": "72°50′20″ E",
    "City": "Mumbai",
    "State": "Maharahstra",
    "foodItems": "vada pav",
    "foodItems": "samosa",
    "hygieneRating": "4 star",
    "tasteRating": "4 star",
    "hospitalityRating": "4 star",
    "photoUrl": "https://res.cloudinary.com/dcafi44ej/image/upload/v1738764259/ashok_vada_pav_vfubnn.jpg"
  },
  {
    "name": "Anand stall",
    "location__type": "",
    "latitude": "19°06′00″ N",
    "longitude": "72°50′30″ E",
    "City": "Mumbai",
    "State": "Maharahstra",
    "foodItems": "vada pav",
    "foodItems": "dosa",
    "hygieneRating": "5 star",
    "tasteRating": "5 star",
    "hospitalityRating": "5 star",
    "photoUrl": "https://res.cloudinary.com/dcafi44ej/image/upload/v1738764357/anand_stall_tohtgo.webp"
  },
  {
    "name": "Badshah Falooda",
    "location__type": "",
    "latitude": "18°57′50″ N",
    "longitude": "72°50′20″ E",
    "City": "Mumbai",
    "State": "Maharahstra",
    "foodItems": "falooda",
    "foodItems": "ice cream",
    "hygieneRating": "2 star",
    "tasteRating": "3 star",
    "hospitalityRating": "3 star",
    "photoUrl": "https://res.cloudinary.com/dcafi44ej/image/upload/v1738764495/badshah_falooda_qaafs4.jpg"
  },
  {
    "name": "Sardar Pav Bhaji",
    "location__type": "",
    "latitude": "18°58′20″ N",
    "longitude": "72°49′30″ E",
    "City": "Mumbai",
    "State": "Maharashtra",
    "foodItems": "pav bhaji",
    "foodItems": "misal pav",
    "hygieneRating": "4 star",
    "tasteRating": "5 star",
    "hospitalityRating": "5 star",
    "photoUrl": "https://res.cloudinary.com/dcafi44ej/image/upload/v1738764758/sardar_izigax.jpg"
  },
  {
    "name": "Aaram vada pav",
    "location__type": "",
    "latitude": "18°56′52″ N",
    "longitude": "72°50′10″ E",
    "City": "Mumbai",
    "State": "Maharashtra",
    "foodItems": "vada pav",
    "foodItems": "pav bhaji",
    "hygieneRating": "3 star",
    "tasteRating": "4 star",
    "hospitalityRating": "4 star",
    "photoUrl": "https://res.cloudinary.com/dcafi44ej/image/upload/v1738764863/aram_mctnnj.jpg"
  },
  {
    "name": "Elco pani puri centre",
    "location__type": "",
    "latitude": "19°03′15″ N",
    "longitude": "72°49′50″ E",
    "City": "Mumbai",
    "State": "Maharashtra",
    "foodItems": "pani puri",
    "foodItems": "sev puri",
    "hygieneRating": "4 star",
    "tasteRating": "5 star",
    "hospitalityRating": "5 star",
    "photoUrl": "https://res.cloudinary.com/dcafi44ej/image/upload/v1738765314/elco_xbnfxf.jpg"
  },
  {
    "name": "Amar juice centre",
    "location__type": "",
    "latitude": "19°04′40″ N",
    "longitude": "72°51′10″ E",
    "City": "Mumbai",
    "State": "Maharashtra",
    "foodItems": "juices",
    "foodItems": "sandwiches",
    "hygieneRating": "5 star",
    "tasteRating": "4 star",
    "hospitalityRating": "4 star",
    "photoUrl": "https://res.cloudinary.com/dcafi44ej/image/upload/v1738765360/amar_gb2agb.jpg"
  },
  {
    "name": "Bachelor's juice centre",
    "location__type": "",
    "latitude": "18°56′40″ N",
    "longitude": "72°49′20″ E",
    "City": "Mumbai",
    "State": "Maharashtra",
    "foodItems": "juices",
    "foodItems": "sandwiches",
    "hygieneRating": "5 star",
    "tasteRating": "5 star",
    "hospitalityRating": "5 star",
    "photoUrl": "https://res.cloudinary.com/dcafi44ej/image/upload/v1738765458/bachelor_s_cljnmw.webp"
  },
  {
    "name": "Gupta chaat centre",
    "location__type": "",
    "latitude": "19°01′45″ N",
    "longitude": "72°51′30″ E",
    "City": "Mumbai",
    "State": "Maharashtra",
    "foodItems": "bhel puri/sev puri",
    "foodItems": "dahi puri",
    "hygieneRating": "4 star",
    "tasteRating": "5 star",
    "hospitalityRating": "4 star",
    "photoUrl": "https://res.cloudinary.com/dcafi44ej/image/upload/v1738765576/gupta_chaat_centre_yua1ke.jpg"
  },
  {
    "name": "Ram ashray",
    "location__type": "",
    "latitude": "19°01′55″ N",
    "longitude": "72°50′55″ E",
    "City": "Mumbai",
    "State": "Maharashtra",
    "foodItems": "dosa",
    "foodItems": "idli",
    "hygieneRating": "4 star",
    "tasteRating": "5 star",
    "hospitalityRating": "5 star",
    "photoUrl": "https://res.cloudinary.com/dcafi44ej/image/upload/v1738765653/ram_ashray_p0wdey.jpg"
  },
  {
    "name": "Guru kripa samosa",
    "location__type": "",
    "latitude": "19°02′40″ N",
    "longitude": "72°52′00″ E",
    "City": "Mumbai",
    "State": "Maharashtra",
    "foodItems": "samosa",
    "foodItems": "sandwiches",
    "hygieneRating": "4 star",
    "tasteRating": "5 star",
    "hospitalityRating": "4 star",
    "photoUrl": "https://res.cloudinary.com/dcafi44ej/image/upload/v1738766709/gurukripa_zuvaua.jpg"
  },
  {
    "name": "Sree Krishna batatawada",
    "location__type": "",
    "latitude": "19°01′25″ N",
    "longitude": "72°50′15″ E",
    "City": "Mumbai",
    "State": "Maharashtra",
    "foodItems": "batatawada",
    "foodItems": "samosa",
    "hygieneRating": "3 star",
    "tasteRating": "4 star",
    "hospitalityRating": "4 star",
    "photoUrl": "https://res.cloudinary.com/dcafi44ej/image/upload/v1738766823/batata_nfqxss.jpg"
  },
  {
    "name": "Sai swad dosa",
    "location__type": "",
    "latitude": "19°04′20″ N",
    "longitude": "72°50′30″ E",
    "City": "Mumbai",
    "State": "Maharashtra",
    "foodItems": "dosa",
    "foodItems": "idli",
    "hygieneRating": "5 star",
    "tasteRating": "5 star",
    "hospitalityRating": "3 star",
    "photoUrl": "https://res.cloudinary.com/dcafi44ej/image/upload/v1738766959/sai_swad_cowdgy.avif"
  },
  {
    "name": "Shreeji stall",
    "location__type": "",
    "latitude": "19°05′20″ N",
    "longitude": "72°54′40″ E",
    "City": "Mumbai",
    "State": "Maharashtra",
    "foodItems": "vada pav",
    "foodItems": "pav bhaji",
    "hygieneRating": "2 star",
    "tasteRating": "5 star",
    "hospitalityRating": "4 star",
    "photoUrl": "https://res.cloudinary.com/dcafi44ej/image/upload/v1738824170/shreeji_dtdtkj.jpg"
  },
  {
    "name": "Jai Jawan",
    "location__type": "",
    "latitude": "19°03′10″ N",
    "longitude": "72°49′45″ E",
    "City": "Mumbai",
    "State": "Maharahstra",
    "foodItems": "butter chicken",
    "foodItems": "prawn",
    "hygieneRating": "5 star",
    "tasteRating": "4 star",
    "hospitalityRating": "3 star",
    "photoUrl": "https://res.cloudinary.com/dcafi44ej/image/upload/v1738824248/jai_jawan_ecirme.jpg"
  },
  {
    "name": "Anna's idli stall",
    "location__type": "",
    "latitude": "18°59′45″ N",
    "longitude": "72°49′55″ E",
    "City": "Mumbai",
    "State": "Maharashtra",
    "foodItems": "idli",
    "foodItems": "dosa",
    "hygieneRating": "3 star",
    "tasteRating": "5 star",
    "hospitalityRating": "5 star",
    "photoUrl": "https://res.cloudinary.com/dcafi44ej/image/upload/v1738824323/anna_ork08q.avif"
  },
  {
    "name": "Shalimar",
    "location__type": "",
    "latitude": "18°57′30″ N",
    "longitude": "72°50′05″ E",
    "City": "Mumbai",
    "State": "Maharashtra",
    "foodItems": "mutton",
    "foodItems": "kebab",
    "hygieneRating": "3 star",
    "tasteRating": "4 star",
    "hospitalityRating": "3 star",
    "photoUrl": "https://res.cloudinary.com/dcafi44ej/image/upload/v1738824414/shalimar_ujflb5.avif"
  },
  {
    "name": "Kartik dosa centre",
    "location__type": "",
    "latitude": "19°08′50″ N",
    "longitude": "72°49′40″ E",
    "City": "Mumbai",
    "State": "Maharashtra",
    "foodItems": "dosa",
    "foodItems": "idli",
    "hygieneRating": "4 star",
    "tasteRating": "5 star",
    "hospitalityRating": "5 star",
    "photoUrl": "https://res.cloudinary.com/dcafi44ej/image/upload/v1738824513/kartik_dosa_kykam3.jpg"
  },
  {
    "name": "Haji Tikka corner",
    "location__type": "",
    "latitude": "18°57′20″ N",
    "longitude": "72°50′25″ E",
    "City": "Mumbai",
    "State": "Maharashtra",
    "foodItems": "kebabs",
    "foodItems": "malpua",
    "hygieneRating": "3 star",
    "tasteRating": "4 star",
    "hospitalityRating": "4 star",
    "photoUrl": "https://res.cloudinary.com/dcafi44ej/image/upload/v1738824703/haji_x0utbw.jpg"
  },
  {
    "name": "Mamledar misal",
    "location__type": "",
    "latitude": "19°11′30″ N",
    "longitude": "72°58′20″ E",
    "City": "Mumbai",
    "State": "Maharahstra",
    "foodItems": "misal pav",
    "foodItems": "samosa",
    "hygieneRating": "3 star",
    "tasteRating": "3 star",
    "hospitalityRating": "5 star",
    "photoUrl": "https://res.cloudinary.com/dcafi44ej/image/upload/v1738825639/mamledar_pi7kaz.webp"
  },
  {
    "name": "Bachelor's ice cream",
    "location__type": "",
    "latitude": "18°56′40″ N",
    "longitude": "72°49′20″ E",
    "City": "Mumbai",
    "State": "Maharashtra",
    "foodItems": "ice cream",
    "foodItems": "juices",
    "hygieneRating": "2 star",
    "tasteRating": "5 star",
    "hospitalityRating": "3 star",
    "photoUrl": "https://res.cloudinary.com/dcafi44ej/image/upload/v1738825748/bachelor_s_xsd7cq.jpg"
  },
  {
    "name": "Prakash Shakahari Upahaar Kendra",
    "location__type": "",
    "latitude": "19°01′45″ N",
    "longitude": "72°50′20″ E",
    "City": "Mumbai",
    "State": "Maharashtra",
    "foodItems": "vada pav",
    "foodItems": "samosa",
    "hygieneRating": "3 star",
    "tasteRating": "4 star",
    "hospitalityRating": "2 star",
    "photoUrl": "https://res.cloudinary.com/dcafi44ej/image/upload/v1738825846/prakash_rkujze.webp"
  },
  {
    "name": "Kala Khatta stall",
    "location__type": "",
    "latitude": "19°06′55″ N",
    "longitude": "72°49′10″ E",
    "City": "Mumbai",
    "State": "Maharashtra",
    "foodItems": "gola",
    "foodItems": "ice cream",
    "hygieneRating": "2 star",
    "tasteRating": "3 star",
    "hospitalityRating": "4 star",
    "photoUrl": "https://res.cloudinary.com/dcafi44ej/image/upload/v1738826408/kala_khatta_agxh8a.webp"
  },
  {
    "name": "JJ garden vada pav",
    "location__type": "",
    "latitude": "18°30′40″ N",
    "longitude": "73°52′30″ E",
    "City": "Pune",
    "State": "Maharashtra",
    "foodItems": "vada pav",
    "foodItems": "samosa",
    "hygieneRating": "3 star",
    "tasteRating": "4 star",
    "hospitalityRating": "5 star",
    "photoUrl": "https://res.cloudinary.com/dcafi44ej/image/upload/v1738830718/garden_vada_pav_v2mlzh.jpg"
  },
  {
    "name": "Sujata Mastani",
    "location__type": "",
    "latitude": "18°30′20″ N",
    "longitude": "73°51′50″ E",
    "City": "Pune",
    "State": "Maharashtra",
    "foodItems": "milkshake",
    "foodItems": "ice cream",
    "hygieneRating": "4 star",
    "tasteRating": "5 star",
    "hospitalityRating": "3 star",
    "photoUrl": "https://res.cloudinary.com/dcafi44ej/image/upload/v1738830824/sujata_mastani_hi3web.webp"
  },
  {
    "name": "Bedekar misal",
    "location__type": "",
    "latitude": "18°31′25″ N",
    "longitude": "73°51′10″ E",
    "City": "Pune",
    "State": "Maharashtra",
    "foodItems": "misal pav",
    "foodItems": "vada pav",
    "hygieneRating": "2 star",
    "tasteRating": "3 star",
    "hospitalityRating": "5 star",
    "photoUrl": "https://res.cloudinary.com/dcafi44ej/image/upload/v1738831003/bedekar_misal_tofhhn.avif"
  },
  {
    "name": "Sadhana Misal pav",
    "location__type": "",
    "latitude": "20°00′55″ N",
    "longitude": "73°43′10″ E",
    "City": "Nashik",
    "State": "Maharashtra",
    "foodItems": "misal pav",
    "foodItems": "buttermilk",
    "hygieneRating": "5 star",
    "tasteRating": "4 star",
    "hospitalityRating": "5 star",
    "photoUrl": "https://res.cloudinary.com/dcafi44ej/image/upload/v1738852908/sadhana_vqjf6j.webp"
  },
  {
    "name": "Shaukin bhel",
    "location__type": "",
    "latitude": "20°00′40″ N",
    "longitude": "73°45′20″ E",
    "City": "Mumbai",
    "State": "Maharashtra",
    "foodItems": "bhel puri",
    "foodItems": "sev puri",
    "hygieneRating": "3 star",
    "tasteRating": "3 star",
    "hospitalityRating": "3 star",
    "photoUrl": "https://res.cloudinary.com/dcafi44ej/image/upload/v1738852998/shokin_bhel_s4cwwc.avif"
  },
  {
    "name": "Tara Pan centre",
    "location__type": "",
    "latitude": "19°53′20″ N",
    "longitude": "75°20′45″ E",
    "City": "Aurangabad",
    "State": "Maharahstra",
    "foodItems": "paan",
    "foodItems": "-",
    "hygieneRating": "4 star",
    "tasteRating": "4 star",
    "hospitalityRating": "4 star",
    "photoUrl": "https://res.cloudinary.com/dcafi44ej/image/upload/v1738853156/tara_pan_kjwgdt.avif"
  },
  {
    "name": "Yewale tea stall",
    "location__type": "",
    "latitude": "19°53′10″ N",
    "longitude": "75°20′30″ E",
    "City": "Aurangabad",
    "State": "Maharashtra",
    "foodItems": "tea",
    "foodItems": "coffee",
    "hygieneRating": "2 star",
    "tasteRating": "3 star",
    "hospitalityRating": "3 star",
    "photoUrl": "https://res.cloudinary.com/dcafi44ej/image/upload/v1738853250/yewale_tea_it6drj.jpg"
  },
  {
    "name": "Phadtare misal pav",
    "location__type": "",
    "latitude": "16°41′20″ N",
    "longitude": "74°14′10″ E",
    "City": "Kolhapur",
    "State": "Maharashtra",
    "foodItems": "misal pav",
    "foodItems": "pav bhaji",
    "hygieneRating": "2 star",
    "tasteRating": "3 star",
    "hospitalityRating": "3 star",
    "photoUrl": "https://res.cloudinary.com/dcafi44ej/image/upload/v1738853348/phadtare_misal_xyrguz.avif"
  },
  {
    "name": "Vithal kamat pav bhaji",
    "location__type": "",
    "latitude": "17°40′10″ N",
    "longitude": "75°55′40″ E",
    "City": "Solapur",
    "State": "Maharahsta",
    "foodItems": "pav bhaji",
    "foodItems": "vada pav",
    "hygieneRating": "4 star",
    "tasteRating": "5 star",
    "hospitalityRating": "5 star",
    "photoUrl": "https://res.cloudinary.com/dcafi44ej/image/upload/v1738853492/vithal_rfehfh.webp"
  },
  {
    "name": "Griddle mama",
    "location__type": "",
    "latitude": "19°0'22\" N",
    "longitude": "72°49'29\" E",
    "City": "Mumbai",
    "State": "Maharashtra",
    "foodItems": "rolls",
    "foodItems": "bowls",
    "hygieneRating": "3 star",
    "tasteRating": "4 star",
    "hospitalityRating": "4 star",
    "photoUrl": "https://res.cloudinary.com/dcafi44ej/image/upload/v1739079924/griddle_mama_rhtbfk.jpg"
  },
  {
    "name": "Shri Lokseva dairy",
    "location__type": "",
    "latitude": "19°0'22\" N",
    "longitude": "72°49'29\" E",
    "City": "Mumbai",
    "State": "Maharashtra",
    "foodItems": "milkshake",
    "foodItems": "-",
    "hygieneRating": "4 star",
    "tasteRating": "5 star",
    "hospitalityRating": "5 star",
    "photoUrl": "https://res.cloudinary.com/dcafi44ej/image/upload/v1739079924/shri_lokseva_dairy_xxcjuq.jpg"
  },
  {
    "name": "Janta seva hindu hotel",
    "location__type": "",
    "latitude": "19°0'22\" N",
    "longitude": "72°49'29\" E",
    "City": "Mumbai",
    "State": "Maharashtra",
    "foodItems": "bun maska pav",
    "foodItems": "tea",
    "hygieneRating": "5 star",
    "tasteRating": "4 star",
    "hospitalityRating": "4 star",
    "photoUrl": "https://res.cloudinary.com/dcafi44ej/image/upload/v1739079924/janta_seva_hindu_hotel_glramy.jpg"
  },
  {
    "name": "Subhash hindu restaurant",
    "location__type": "",
    "latitude": "19°0'22\" N",
    "longitude": "72°49'29\" E",
    "City": "Mumbai",
    "State": "Maharahstra",
    "foodItems": "samosa",
    "foodItems": "sodas",
    "hygieneRating": "5 star",
    "tasteRating": "5 star",
    "hospitalityRating": "5 star",
    "photoUrl": "https://res.cloudinary.com/dcafi44ej/image/upload/v1739079924/subhash_hindu_restaurant_c9llrh.jpg"
  },
  {
    "name": "Suleman usman mithaiwala",
    "location__type": "",
    "latitude": "18°57′50″ N",
    "longitude": "72°50′30″ E",
    "City": "Mumbai",
    "State": "Maharahstra",
    "foodItems": "malpua",
    "foodItems": "phirni",
    "hygieneRating": "4 star",
    "tasteRating": "5 star",
    "hospitalityRating": "4 star",
    "photoUrl": "https://res.cloudinary.com/dcafi44ej/image/upload/v1739285094/suleman_bo1uec.png"
  },
  {
    "name": "Cafe good luck",
    "location__type": "",
    "latitude": "18°31′30″ N",
    "longitude": "73°50′20″ E",
    "City": "Pune",
    "State": "Maharashtra",
    "foodItems": "bun maska pav",
    "foodItems": "tea",
    "hygieneRating": "4 star",
    "tasteRating": "5 star",
    "hospitalityRating": "5 star",
    "photoUrl": "https://res.cloudinary.com/dcafi44ej/image/upload/v1739285203/cafe_good_luck_a1lxwk.jpg"
  },
  {
    "name": "Appa's misal pav",
    "location__type": "",
    "latitude": "18°30′50″ N",
    "longitude": "73°51′40″ E",
    "City": "Pune",
    "State": "Maharashtra",
    "foodItems": "misal pav",
    "foodItems": "vada pav",
    "hygieneRating": "4 star",
    "tasteRating": "5 star",
    "hospitalityRating": "4 star",
    "photoUrl": "https://res.cloudinary.com/dcafi44ej/image/upload/v1739285282/appa_misal_cj9smz.avif"
  },
  {
    "name": "Shree krishna mastani",
    "location__type": "",
    "latitude": "18°30′40″ N",
    "longitude": "73°52′10″ E",
    "City": "Pune",
    "State": "Maharashtra",
    "foodItems": "mango mastani",
    "foodItems": "ice cream",
    "hygieneRating": "3 star",
    "tasteRating": "4 star",
    "hospitalityRating": "4 star",
    "photoUrl": "https://res.cloudinary.com/dcafi44ej/image/upload/v1739285393/shree_krishna_mastani_cwfobw.jpg"
  },
  {
    "name": "Mahananda dairy sweets",
    "location__type": "",
    "latitude": "20°01′10″ N",
    "longitude": "73°45′30″ E",
    "City": "Nashik",
    "State": "Maharahstra",
    "foodItems": "misal pav",
    "foodItems": "basundi",
    "hygieneRating": "5 star",
    "tasteRating": "4 star",
    "hospitalityRating": "5 star",
    "photoUrl": "https://res.cloudinary.com/dcafi44ej/image/upload/v1739285582/mahananda_hsss8h.avif"
  }
]